aceX aceY aceZ lati longi altiMed vel pitch roll yaw time
-0.240 -208.180 -0.010 38.724 -9.248 161.12 0 62.938 -15.812 -0.062 0
-0.090 -262.150 -0.010 38.724 -9.248 161.06 0 65.000 2.312 39.250 0
0.050 -6.450 8.250 38.724 -9.248 161.11 0 65.750 5.812 -16.000 0
-0.010 -167.060 -0.010 38.724 -9.248 161.08 0 68.750 2.938 39.250 0
-0.250 -6.520 7.950 38.724 -9.248 161.05 0 73.375 -15.750 -0.062 0
-0.150 -5.600 7.220 38.724 -9.248 160.98 0 77.062 -15.750 -0.062 0
-0.100 -223.600 -0.010 38.724 -9.248 160.93 0 78.375 -15.750 -0.062 0
0.000 -2.560 -0.010 38.724 -9.248 160.89 0 78.188 3.000 36.125 0
-0.050 -303.270 -0.010 38.724 -9.248 160.98 0 78.562 3.438 -16.000 0
-0.140 -257.010 -0.010 38.724 -9.248 160.97 0 79.375 0.125 39.125 0
-0.090 -272.430 -0.010 38.724 -9.248 161.06 0 79.250 -15.750 -0.062 0
-0.100 -264.720 -0.010 38.724 -9.248 161.05 0 78.938 -15.750 -0.062 0
-0.020 -195.330 -0.010 38.724 -9.248 161.10 0 77.812 0.062 34.812 0
-0.100 -262.150 -0.010 38.724 -9.249 161.07 0 77.000 0.062 39.750 0
-0.110 -190.190 -0.010 38.724 -9.249 161.04 0 77.062 0.312 39.000 0
-0.150 -6.460 8.120 38.724 -9.249 160.98 0 76.375 0.000 -16.000 0
-0.160 -264.720 -0.010 38.724 -9.249 160.97 0 74.875 -15.750 -0.062 0
-0.170 -239.020 -0.010 38.724 -9.249 160.89 0 71.750 -15.750 -0.062 0
-0.200 -5.740 7.260 38.724 -9.249 160.88 0 67.562 -15.750 -0.062 0
-0.210 -244.160 -0.010 38.724 -9.249 160.91 0 61.938 -15.812 -0.062 0
-0.130 -187.620 -0.010 38.724 -9.249 160.88 0 54.500 -15.812 -0.062 0
-0.140 -6.470 7.900 38.724 -9.249 160.80 0 46.188 -15.875 -0.062 0
-0.170 -6.490 8.030 38.724 -9.249 160.90 0 38.000 -15.875 -0.062 0
-0.230 -5.760 7.160 38.724 -9.249 160.98 0 28.125 -15.938 -0.062 0
-0.200 -323.830 -0.010 38.724 -9.249 161.01 0 14.562 -16.000 -0.062 0
-0.120 -205.610 -0.010 38.724 -9.249 160.95 0 1.375 3.125 34.375 0
-0.090 -6.450 7.940 38.724 -9.249 160.97 0 347.500 0.438 -16.000 0
-0.110 -262.150 -0.010 38.724 -9.249 161.02 0 334.875 -14.750 -0.062 0
-0.180 -6.580 7.910 38.724 -9.249 161.07 0 319.938 -14.812 -0.062 0
-0.180 -5.340 6.670 38.724 -9.249 161.13 0 303.375 -14.875 -0.062 0
-0.130 -6.460 7.710 38.724 -9.249 161.27 0 286.375 0.312 37.938 0
-0.090 -197.900 -0.010 38.724 -9.249 161.23 0 267.875 -15.000 -0.062 0
-0.100 -6.470 7.920 38.724 -9.249 161.09 0 251.375 -15.062 -0.062 0
-0.130 -210.750 -0.010 38.724 -9.249 161.08 0 232.500 -15.125 -0.062 0
-0.160 -259.580 -0.010 38.724 -9.249 161.02 0 215.188 -15.188 -0.062 0
-0.140 -6.460 7.840 38.724 -9.249 160.96 0 196.125 -15.250 -0.062 0
-0.160 -203.040 -0.010 38.724 -9.249 160.96 0 178.188 -15.312 -0.062 0
-0.140 -6.600 8.060 38.724 -9.249 161.04 0 157.375 -15.438 -0.062 0
-0.040 -169.630 -0.010 38.724 -9.249 161.12 0 136.938 1.750 -16.000 0
-0.160 159.340 -0.010 38.724 -9.249 161.03 0 115.500 -15.562 -0.062 0
-0.260 -223.600 -0.010 38.724 -9.249 161.15 0 92.688 -8.562 35.625 0
-0.140 -277.570 -0.010 38.724 -9.249 161.12 0 70.500 -15.750 -0.062 0
-0.030 -231.310 -0.010 38.724 -9.249 161.20 0 47.250 -15.875 -0.062 0
-0.110 -6.810 8.080 38.724 -9.249 161.34 0 23.500 -15.938 -0.062 0
-0.160 -251.870 -0.010 38.724 -9.249 161.31 0 1.062 2.125 -16.000 0
-0.130 -223.600 -0.010 38.724 -9.249 161.34 0 338.562 1.312 -16.000 0
-0.140 -195.330 -0.010 38.724 -9.249 161.44 0 315.875 -14.812 -0.062 0
-0.150 -6.470 7.540 38.724 -9.249 161.41 0 289.562 -14.875 -0.062 0
-0.080 -280.140 -0.010 38.724 -9.249 161.50 0 261.125 -15.000 -0.062 0
-0.050 -6.720 7.900 38.724 -9.249 161.44 0 228.562 -15.125 -0.062 0
-0.100 -208.180 -0.010 38.724 -9.249 161.40 0 196.062 1.188 36.938 0
-0.130 -6.820 7.960 38.724 -9.249 161.44 0 165.938 3.125 37.000 0
-0.100 -282.710 -0.010 38.724 -9.249 161.46 0 138.938 4.500 -16.000 0
-0.110 -277.570 -0.010 38.724 -9.249 161.46 0 114.375 3.938 -16.000 0
-0.110 -267.290 -0.010 38.724 -9.249 161.33 0 90.500 2.188 -16.000 0
-0.160 -6.540 7.640 38.724 -9.249 161.30 0 64.312 -15.750 -0.062 0
-0.130 -313.550 -0.010 38.724 -9.249 161.33 0 34.188 -15.875 -0.062 0
-0.100 -239.020 -0.010 38.724 -9.249 161.35 0 3.250 -16.000 -0.062 0
0.000 -6.610 7.770 38.724 -9.249 161.32 0 329.062 3.500 -16.000 0
-0.070 -305.840 -0.010 38.724 -9.249 161.40 0 295.062 -14.875 -0.062 0
-0.130 -6.440 7.470 38.724 -9.249 161.40 0 260.000 -15.000 -0.062 0
-0.100 -192.760 -0.010 38.724 -9.249 161.48 0 229.125 0.688 -16.000 0
-0.060 -6.700 7.810 38.724 -9.249 161.40 0 195.812 2.188 36.438 0
-0.110 -280.140 -0.010 38.724 -9.249 161.45 0 164.375 -15.375 -0.062 0
-0.100 -298.130 -0.010 38.724 -9.249 161.39 0 132.938 -15.500 -0.062 0
-0.080 -303.270 -0.010 38.724 -9.249 161.39 0 101.438 3.062 -16.000 0
-0.070 -6.510 7.620 38.724 -9.249 161.44 0 70.000 3.000 32.375 0
-0.060 -282.710 -0.010 38.724 -9.249 161.46 0 37.000 0.438 34.625 0
-0.050 -321.260 -0.010 38.724 -9.249 161.43 0 4.562 0.000 33.688 0
-0.010 -326.400 -0.010 38.724 -9.249 161.34 0 332.625 1.750 36.812 0
-0.050 -6.430 7.480 38.724 -9.249 161.28 0 298.750 -14.875 -0.062 0
-0.110 -6.470 7.460 38.724 -9.249 161.37 0 265.125 -15.000 -0.062 0
-0.130 -262.150 -0.010 38.724 -9.249 161.33 0 232.500 -15.125 -0.062 0
-0.070 -6.490 7.630 38.724 -9.249 161.30 0 197.062 0.438 34.188 0
-0.100 -300.700 -0.010 38.724 -9.249 161.35 0 164.250 0.000 33.312 0
-0.090 -6.470 7.490 38.724 -9.249 161.32 0 130.000 -15.500 -0.062 0
-0.020 -269.860 -0.010 38.724 -9.249 161.28 0 96.625 2.125 -16.000 0
-0.050 -6.510 7.540 38.724 -9.249 161.25 0 65.312 3.750 32.938 0
-0.090 -316.120 -0.010 38.724 -9.249 161.34 0 31.688 1.625 35.625 0
-0.090 -6.500 7.660 38.724 -9.249 161.28 0 357.938 0.312 35.500 0
0.000 -2.560 -0.010 38.724 -9.249 161.19 0 325.312 1.500 36.312 0
-0.020 -6.450 7.580 38.724 -9.249 161.22 0 291.562 -14.875 -0.062 0
-0.200 -6.480 7.470 38.724 -9.249 161.24 0 258.750 -15.000 -0.062 0
-0.260 -321.260 -0.010 38.724 -9.249 161.24 0 221.312 -15.188 -0.062 0
-0.010 -6.450 7.360 38.724 -9.249 161.32 0 179.312 -15.312 -0.062 0
-0.070 -6.560 7.430 38.724 -9.249 161.21 0 138.750 0.250 -16.000 0
0.000 -6.500 7.340 38.724 -9.249 161.14 0 96.500 1.688 -16.000 0
0.040 -2.560 -0.010 38.724 -9.249 161.16 0 57.500 4.312 -16.000 0
0.020 -6.710 7.600 38.724 -9.249 161.20 0 17.875 4.938 35.625 0
0.020 -6.540 7.540 38.724 -9.249 161.13 0 339.125 2.938 36.312 0
0.020 -2.560 -0.010 38.724 -9.249 161.04 0 306.062 0.500 35.812 0
-0.030 -6.440 7.580 38.724 -9.249 161.10 0 274.750 -14.938 -0.062 0
-0.120 -292.990 -0.010 38.724 -9.249 161.04 0 247.438 -15.062 -0.062 0
-0.150 -6.590 7.710 38.724 -9.249 161.01 0 218.375 -15.188 -0.062 0
-0.160 -251.870 -0.010 38.724 -9.249 161.01 0 189.250 -15.312 -0.062 0
-0.120 -264.720 -0.010 38.724 -9.249 161.03 0 160.750 0.188 -16.000 0
-0.120 -6.740 8.000 38.724 -9.249 161.12 0 131.812 0.812 34.312 0
-0.110 -298.130 -0.010 38.724 -9.249 161.20 0 103.812 0.312 32.500 0
-0.120 -305.840 -0.010 38.724 -9.249 161.12 0 75.375 1.562 -16.000 0
-0.140 -292.990 -0.010 38.724 -9.249 161.25 0 48.688 3.875 -16.000 0
-0.120 -6.500 7.620 38.724 -9.249 161.23 0 21.125 2.750 37.562 0
-0.110 -318.690 -0.010 38.724 -9.249 161.22 0 351.812 0.000 39.375 0
-0.090 -241.590 -0.010 38.724 -9.249 161.13 0 324.812 1.125 35.750 0
-0.100 -6.420 7.610 38.724 -9.249 161.10 0 296.688 2.250 39.562 0
-0.210 -292.990 -0.010 38.724 -9.249 161.13 0 268.875 -15.000 -0.062 0
-0.200 -318.690 -0.010 38.724 -9.249 161.01 0 242.312 -15.062 -0.062 0
-0.160 -275.000 -0.010 38.724 -9.249 160.95 0 213.562 -15.188 -0.062 0
-0.150 -6.460 7.610 38.724 -9.249 161.06 0 185.438 -15.312 -0.062 0
-0.170 -321.260 -0.010 38.724 -9.249 161.05 0 157.250 -15.438 -0.062 0
-0.190 -305.840 -0.010 38.724 -9.249 161.14 0 127.062 -15.562 -0.062 0
-0.140 -264.720 -0.010 38.724 -9.249 161.25 0 96.000 1.312 -16.000 0
-0.020 -326.400 -0.010 38.724 -9.249 161.14 0 64.938 3.750 34.000 0
-0.070 -300.700 -0.010 38.724 -9.249 161.05 0 35.500 3.375 36.000 0
-0.010 -300.700 -0.010 38.724 -9.249 161.07 0 6.375 2.938 34.750 0
-0.020 -290.420 -0.010 38.724 -9.249 161.12 0 340.812 3.500 36.688 0
-0.100 -295.560 -0.010 38.724 -9.249 161.21 0 316.625 1.125 39.250 0
-0.160 -318.690 -0.010 38.724 -9.249 161.18 0 293.562 -14.875 -0.062 0
-0.190 -210.750 -0.010 38.724 -9.249 161.15 0 272.250 -14.938 -0.062 0
-0.180 -308.410 -0.010 38.724 -9.249 161.12 0 249.000 -15.062 -0.062 0
-0.220 -303.270 -0.010 38.724 -9.249 161.14 0 226.750 -15.125 -0.062 0
-0.210 -295.560 -0.010 38.724 -9.249 161.14 0 204.250 -15.250 -0.062 0
-0.170 -264.720 -0.010 38.724 -9.249 161.22 0 183.062 -15.312 -0.062 0
-0.160 -308.410 -0.010 38.724 -9.249 161.31 0 161.000 -15.375 -0.062 0
-0.170 -272.430 -0.010 38.724 -9.249 161.28 0 137.812 -15.500 -0.062 0
-0.210 -318.690 -0.010 38.724 -9.249 161.30 0 116.375 -15.562 -0.062 0
-0.210 -267.290 -0.010 38.724 -9.249 161.38 0 94.125 -15.688 -0.062 0
-0.190 -292.990 -0.010 38.724 -9.249 161.35 0 71.125 0.062 32.562 0
-0.190 -292.990 -0.010 38.724 -9.249 161.33 0 49.500 1.062 34.562 0
-0.200 -316.120 -0.010 38.724 -9.249 161.35 0 27.000 -15.938 -0.062 0
-0.180 -275.000 -0.010 38.724 -9.249 161.37 0 4.500 -16.000 -0.062 0
-0.200 -282.710 -0.010 38.724 -9.249 161.37 0 341.750 -14.688 -0.062 0
-0.190 -303.270 -0.010 38.724 -9.249 161.40 0 319.438 0.125 35.625 0
-0.180 -303.270 -0.010 38.724 -9.249 161.43 0 295.438 -14.875 -0.062 0
-0.190 -298.130 -0.010 38.724 -9.249 161.45 0 271.062 -15.000 -0.062 0
-0.190 -282.710 -0.010 38.724 -9.249 161.37 0 246.750 -15.062 -0.062 0
-0.170 -313.550 -0.010 38.724 -9.249 161.39 0 222.500 0.312 34.938 0
-0.200 -6.460 7.710 38.724 -9.249 161.53 0 198.438 0.000 35.562 0
-0.230 -305.840 -0.010 38.724 -9.249 161.50 0 175.250 -15.375 -0.062 0
-0.220 -292.990 -0.010 38.724 -9.249 161.47 0 150.875 -15.438 -0.062 0
-0.220 -321.260 -0.010 38.724 -9.249 161.40 0 125.562 -15.562 -0.062 0
-0.230 -323.830 -0.010 38.724 -9.249 161.38 0 98.688 -15.625 -0.062 0
-0.150 -300.700 -0.010 38.724 -9.249 161.40 0 70.625 -15.750 -0.062 0
-0.170 -6.410 7.630 38.724 -9.249 161.43 0 42.875 0.312 36.000 0
-0.170 -290.420 -0.010 38.724 -9.249 161.45 0 16.812 0.688 35.688 0
-0.150 -292.990 -0.010 38.724 -9.249 161.57 0 350.438 0.000 35.062 0
-0.170 -221.030 -0.010 38.724 -9.249 161.51 0 324.438 -14.750 -0.062 0
-0.210 -6.680 7.830 38.724 -9.249 161.59 0 297.875 -14.875 -0.062 0
-0.120 -269.860 -0.010 38.724 -9.249 161.62 0 270.812 -15.000 -0.062 0
-0.080 -300.700 -0.010 38.724 -9.249 161.64 0 243.000 4.812 -16.000 0
-0.220 -6.700 7.510 38.724 -9.249 161.56 0 213.062 4.375 48.625 0
-0.260 -241.590 -0.010 38.724 -9.249 161.58 0 185.375 1.938 35.375 0
-0.250 -326.400 -0.010 38.724 -9.249 161.69 0 163.438 3.375 -16.000 0
-0.190 -254.440 -0.010 38.724 -9.249 161.57 0 140.250 4.500 -16.000 0
-0.240 -6.540 7.760 38.724 -9.249 161.57 0 117.750 -15.562 -0.062 0
-0.320 -6.630 7.710 38.724 -9.249 161.54 0 94.500 -9.938 37.375 0
-0.230 -292.990 -0.010 38.724 -9.249 161.51 0 67.938 -9.750 34.125 0
-0.130 -6.570 7.710 38.724 -9.249 161.51 0 38.000 -15.875 -0.062 0
-0.130 -259.580 -0.010 38.724 -9.249 161.48 0 5.562 -16.000 -0.062 0
-0.180 -6.560 7.450 38.724 -9.249 161.56 0 333.000 -14.750 -0.062 0
-0.190 -290.420 -0.010 38.724 -9.249 161.56 0 300.562 3.250 34.125 0
-0.120 -6.600 7.910 38.724 -9.249 161.53 0 272.688 -14.938 -0.062 0
-0.060 -264.720 -0.010 38.724 -9.249 161.52 0 245.500 -15.062 -0.062 0
-0.170 -6.710 7.930 38.724 -9.249 161.49 0 221.688 3.125 36.938 0
-0.230 -231.310 -0.010 38.724 -9.249 161.49 0 200.625 -15.250 -0.062 0
-0.240 -313.550 -0.010 38.724 -9.249 161.52 0 181.312 -15.312 -0.062 0
-0.190 -254.440 -0.010 38.724 -9.249 161.49 0 159.812 -15.438 -0.062 0
-0.200 -6.730 7.940 38.724 -9.249 161.54 0 136.812 -15.500 -0.062 0
-0.230 -300.700 -0.010 38.724 -9.249 161.57 0 111.188 -15.625 -0.062 0
-0.250 -300.700 -0.010 38.724 -9.249 161.59 0 86.125 -15.688 -0.062 0
-0.210 -321.260 -0.010 38.724 -9.249 161.59 0 61.062 -15.812 -0.062 0
-0.220 -280.140 -0.010 38.724 -9.249 161.57 0 38.062 3.250 32.250 0
-0.220 -6.720 7.920 38.724 -9.249 161.47 0 15.125 0.312 35.125 0
-0.270 -246.730 -0.010 38.724 -9.249 161.44 0 354.438 -14.625 -0.062 0
-0.220 -259.580 -0.010 38.724 -9.249 161.58 0 332.875 -14.750 -0.062 0
-0.180 -259.580 -0.010 38.724 -9.249 161.64 0 310.375 -14.812 -0.062 0
-0.200 -6.660 7.790 38.724 -9.249 161.72 0 286.688 -14.938 -0.062 0
-0.230 -292.990 -0.010 38.724 -9.249 161.57 0 262.312 -15.000 -0.062 0
-0.230 -6.450 7.630 38.724 -9.249 161.55 0 237.500 -15.125 -0.062 0
-0.190 -290.420 -0.010 38.724 -9.249 161.55 0 212.188 0.000 34.062 0
-0.170 -6.500 7.760 38.724 -9.249 161.49 0 190.812 2.375 36.875 0
-0.190 -303.270 -0.010 38.724 -9.249 161.54 0 169.500 0.875 35.250 0
-0.240 -246.730 -0.010 38.724 -9.249 161.62 0 152.062 -15.438 -0.062 0
-0.280 -6.610 7.870 38.724 -9.249 161.65 0 134.688 -15.500 -0.062 0
-0.230 -254.440 -0.010 38.724 -9.249 161.62 0 119.125 -15.562 -0.062 0
-0.290 -6.430 7.570 38.724 -9.249 161.59 0 102.312 -15.625 -0.062 0
-0.290 -236.450 -0.010 38.724 -9.249 161.70 0 86.188 -15.688 -0.062 0
-0.290 -6.740 7.860 38.724 -9.249 161.70 0 66.250 -15.750 -0.062 0
-0.290 -174.770 -0.010 38.724 -9.249 161.69 0 47.312 -15.875 -0.062 0
-0.300 -208.180 -0.010 38.724 -9.249 161.77 0 28.750 -15.938 -0.062 0
-0.240 -298.130 -0.010 38.724 -9.249 161.75 0 9.062 1.812 37.375 0
-0.250 -6.640 7.960 38.724 -9.249 161.69 0 351.312 -14.688 -0.062 0
-0.290 -6.660 7.930 38.724 -9.249 161.72 0 332.938 -14.750 -0.062 0
-0.250 -197.900 -0.010 38.724 -9.249 161.65 0 316.562 -14.812 -0.062 0
-0.250 -6.960 8.370 38.724 -9.249 161.62 0 298.125 0.000 37.250 0
-0.010 -164.490 -0.010 38.724 -9.249 161.68 0 281.062 -14.938 -0.062 0
0.080 -6.630 7.740 38.724 -9.249 161.65 0 270.438 -15.000 -0.062 0
-0.090 -200.470 -0.010 38.724 -9.249 161.65 0 270.562 -15.000 -0.062 0
-0.270 -6.540 7.740 38.724 -9.249 161.65 0 277.062 -14.938 -0.062 0
-0.280 -5.720 7.010 38.724 -9.249 161.62 0 288.625 -14.875 -0.062 0
-0.230 -6.870 8.240 38.724 -9.249 161.68 0 302.438 0.062 -16.000 0
-0.240 -6.490 7.450 38.724 -9.249 161.93 0 330.375 0.500 -16.000 0
-0.290 -6.750 7.530 38.724 -9.249 162.16 0 15.188 2.688 36.750 0
-0.090 17.990 -0.010 38.724 -9.249 162.29 0 68.750 -15.750 -0.062 0
1.510 -9.440 6.850 38.724 -9.249 162.41 0 145.312 -15.438 -0.062 0
0.650 123.360 -0.010 38.724 -9.249 162.38 0 255.812 -8.250 30.062 0
2.090 -2.560 -0.010 38.724 -9.249 162.60 0 21.625 5.188 37.562 0
0.360 131.070 -0.010 38.724 -9.249 162.74 0 163.938 -15.375 -0.062 0
1.240 -2.560 -0.010 38.724 -9.249 162.71 0 309.312 -14.812 -0.062 0
2.140 10.280 -0.010 38.724 -9.249 162.40 0 80.438 -15.688 -0.062 0
0.300 -11.560 2.540 38.724 -9.249 162.46 0 232.438 -15.125 -0.062 0
1.260 -2.560 -0.010 38.724 -9.249 162.59 0 358.375 -14.625 -0.062 0
0.630 -2.560 -0.010 38.724 -9.249 162.57 0 169.812 -15.375 -0.062 0
1.950 77.100 -0.010 38.724 -9.249 162.59 0 300.750 -14.875 -0.062 0
0.780 -2.560 -0.010 38.724 -9.249 162.45 0 112.125 -15.562 -0.062 0
1.990 -2.560 -0.010 38.724 -9.249 162.41 0 251.375 -15.062 -0.062 0
1.650 161.910 -0.010 38.724 -9.249 162.76 0 67.188 0.875 5.688 0
1.500 -2.560 -0.010 38.724 -9.249 162.84 0 231.188 -9.625 31.500 0
5.630 71.960 -0.010 38.724 -9.249 163.10 0 64.312 -15.750 -0.062 0
0.810 -2.560 -0.010 38.724 -9.249 162.93 0 252.438 -15.062 -0.062 0
4.450 -22.070 3.420 38.724 -9.249 162.98 0 82.500 -15.688 -0.062 0
0.850 -2.560 -0.010 38.724 -9.249 162.84 0 266.438 -15.000 -0.062 0
4.060 -2.550 -0.010 38.724 -9.249 162.92 0 100.625 2.062 18.938 0
1.650 -2.560 -0.010 38.724 -9.249 162.83 0 277.812 1.562 -16.000 0
4.370 -19.740 5.330 38.724 -9.249 162.69 0 102.312 -15.625 -0.062 0
1.490 -14.330 5.410 38.724 -9.249 162.60 0 263.625 6.500 17.938 0
2.610 -16.880 5.100 38.724 -9.249 162.52 0 77.438 -15.750 -0.062 0
0.490 -2.560 -0.010 38.724 -9.249 162.54 0 210.625 -15.188 -0.062 0
2.830 -2.550 -0.010 38.724 -9.249 162.45 0 1.000 6.875 -16.000 0
1.310 -2.560 -0.010 38.724 -9.249 162.31 0 121.625 -15.562 -0.062 0
0.880 -2.560 -0.010 38.724 -9.249 162.42 0 259.562 -15.000 -0.062 0
1.340 43.690 -0.010 38.724 -9.249 162.18 0 2.750 16.062 -15.938 0
-0.450 79.670 -0.010 38.724 -9.249 162.13 0 124.688 706.750 -0.062 0
0.590 -2.560 -0.010 38.724 -9.249 162.16 0 216.375 -15.188 -0.062 0
0.910 -2.560 -0.010 38.724 -9.249 162.30 0 330.000 1.062 34.875 0
0.920 -2.560 -0.010 38.724 -9.249 162.30 0 50.125 16.375 -15.938 0
0.540 53.970 -0.010 38.724 -9.249 162.29 0 154.750 -15.438 -0.062 0
0.390 123.360 -0.010 38.724 -9.249 162.23 0 232.875 -8.062 28.250 0
0.970 -9.020 6.170 38.724 -9.249 162.55 0 324.500 1.938 -16.000 0
1.350 56.540 -0.010 38.724 -9.249 162.57 0 60.812 -15.812 -0.062 0
-6.640 115.650 -0.010 38.724 -9.249 162.48 0 146.312 -15.438 -0.062 0
-0.310 92.520 -0.010 38.724 -9.249 162.37 0 182.250 -15.312 -0.062 0
0.200 -6.510 7.530 38.724 -9.249 162.34 0 187.812 -15.312 -0.062 0
-0.330 -5.530 7.490 38.724 -9.249 162.48 0 190.500 -15.312 -0.062 0
1.440 -2.560 -0.010 38.724 -9.249 162.74 0 188.562 -15.312 -0.062 0
1.110 -2.560 -0.010 38.724 -9.249 162.91 0 189.500 -15.312 -0.062 0
-0.570 123.360 -0.010 38.724 -9.249 163.37 0 190.125 -9.750 23.375 0
-218.460 -0.010 -0.010 38.724 -9.249 163.22 0 183.312 -9.500 30.125 0
-0.210 -5.150 8.700 38.724 -9.249 162.99 0 174.562 1011.938 -0.062 0
-0.480 12.850 -0.010 38.724 -9.249 163.24 0 172.000 995.875 -0.062 0
-1.730 -6.910 7.900 38.724 -9.249 163.09 0 177.375 883.438 -0.062 0
-1.470 -6.960 6.680 38.724 -9.249 163.32 0 197.750 497.938 -0.062 0
0.700 -2.560 -0.010 38.724 -9.249 163.70 0 231.125 -8.062 54.250 0
1.660 -2.560 -0.010 38.724 -9.249 164.09 0 292.500 3.312 -16.000 0
1.710 -11.590 5.870 38.724 -9.249 163.93 0 45.562 -15.875 -0.062 0
1.090 -2.560 -0.010 38.724 -9.249 163.90 0 170.938 -15.375 -0.062 0
0.980 -14.420 4.660 38.724 -9.249 163.93 0 335.250 -14.750 -0.062 0
1.150 -16.870 4.870 38.724 -9.249 163.59 0 130.062 -8.250 18.875 0
0.450 -2.560 -0.010 38.724 -9.249 163.70 0 296.500 1.750 -16.000 0
3.880 -2.550 -0.010 38.724 -9.249 163.35 0 103.750 -15.625 -0.062 0
4.200 123.360 -0.010 38.724 -9.249 163.56 0 278.250 22.125 -15.938 0
5.340 2.570 -0.010 38.724 -9.249 163.52 0 108.625 -15.625 -0.062 0
0.900 151.630 -0.010 38.724 -9.249 163.26 0 304.688 -14.812 -0.062 0
4.940 -2.550 -0.010 38.724 -9.249 162.90 0 99.250 -15.625 -0.062 0
1.450 107.940 -0.010 38.724 -9.249 163.03 0 247.125 18.500 36.875 0
2.140 -14.200 1.410 38.724 -9.249 163.72 0 60.875 562.188 -0.062 0
4.420 -2.550 -0.010 38.724 -9.249 163.69 0 224.188 -15.125 -0.062 0
1.430 -2.560 -0.010 38.724 -9.249 163.55 0 25.312 -15.938 -0.062 0
0.660 -2.560 -0.010 38.724 -9.249 163.32 0 192.125 -15.250 -0.062 0
2.600 -2.550 -0.010 38.724 -9.249 163.31 0 340.250 -14.688 -0.062 0
1.010 -2.560 -0.010 38.724 -9.249 163.37 0 128.812 449.750 -0.062 0
6.820 -2.540 -0.010 38.724 -9.249 163.45 0 294.250 17.062 22.500 0
0.130 -2.560 -0.010 38.724 -9.249 163.47 0 86.000 -15.688 -0.062 0
1.190 138.780 -0.010 38.724 -9.249 163.07 0 250.125 754.938 -0.062 0
1.550 -2.560 -0.010 38.724 -9.249 162.71 0 34.625 16.875 37.125 0
0.850 -2.560 -0.010 38.724 -9.249 162.68 0 184.125 -15.312 -0.062 0
6.980 -2.540 -0.010 38.724 -9.249 162.82 0 316.375 18.188 -15.938 0
0.440 123.360 -0.010 38.724 -9.249 163.42 0 108.125 144.562 -0.062 0
8.410 -2.530 -0.010 38.724 -9.249 163.42 0 271.562 34.312 -15.875 0
2.930 -2.550 -0.010 38.724 -9.249 163.80 0 46.312 37.875 39.562 0
5.270 77.100 -0.010 38.724 -9.249 163.28 0 183.438 -40.625 19.625 0
4.140 -2.550 -0.010 38.724 -9.249 162.99 0 259.125 23.062 32.938 0
1.790 -14.290 4.320 38.724 -9.249 163.30 0 358.000 -14.625 -0.062 0
-0.410 -10.790 8.890 38.724 -9.249 163.73 0 59.062 18.688 32.375 0
2.900 -2.550 -0.010 38.724 -9.249 163.58 0 158.375 -15.438 -0.062 0
-0.590 51.400 -0.010 38.724 -9.249 163.87 0 211.375 6.000 -16.000 0
1.940 -2.560 -0.010 38.724 -9.249 163.64 0 355.375 -14.625 -0.062 0
0.330 -2.560 -0.010 38.724 -9.249 163.44 0 100.125 819.188 -0.062 0
6.760 -16.680 9.750 38.724 -9.249 163.30 0 228.250 0.812 -16.000 0
1.010 0.000 -0.010 38.724 -9.249 163.90 0 333.375 -14.750 -0.062 0
0.900 -2.560 -0.010 38.724 -9.249 163.56 0 129.250 -15.500 -0.062 0
1.320 -17.080 9.800 38.724 -9.249 163.69 0 214.938 -15.188 -0.062 0
0.000 -9.240 -0.410 38.724 -9.249 163.35 0 12.938 -11.938 5.688 0
-223.600 -0.010 -0.010 38.724 -9.249 163.46 0 105.625 1.625 34.875 0
2.010 -2.560 -0.010 38.724 -9.249 163.87 0 247.312 -15.062 -0.062 0
3.320 -12.130 6.680 38.724 -9.249 164.04 0 12.062 -16.000 -0.062 0
0.760 -6.580 5.210 38.724 -9.249 164.07 0 130.188 -15.500 -0.062 0
6.220 -2.540 -0.010 38.724 -9.249 163.90 0 249.062 -11.938 61.500 0
-0.020 43.690 -0.010 38.724 -9.249 164.15 0 27.188 7.375 3.062 0
8.060 -2.530 -0.010 38.724 -9.249 164.04 0 173.188 -15.375 -0.062 0
1.480 -2.560 -0.010 38.724 -9.249 164.01 0 314.625 -14.812 -0.062 0
1.460 151.630 -0.010 38.724 -9.249 163.86 0 106.000 -15.625 -0.062 0
1.910 -2.560 -0.010 38.724 -9.249 164.00 0 261.812 -15.000 -0.062 0
0.210 149.060 -0.010 38.724 -9.249 164.18 0 65.062 6.062 -16.000 0
3.380 149.060 -0.010 38.724 -9.249 164.00 0 218.188 -15.188 -0.062 0
-0.270 -310.980 -0.010 38.724 -9.249 163.95 0 11.312 -16.000 -0.062 0
2.750 123.360 -0.010 38.724 -9.249 163.95 0 165.812 -8.062 28.938 0
0.530 133.640 -0.010 38.724 -9.249 163.83 0 315.188 -14.812 -0.062 0
2.620 -11.980 4.990 38.724 -9.249 163.61 0 100.375 -15.625 -0.062 0
1.140 -2.560 -0.010 38.724 -9.249 163.57 0 204.812 -15.250 -0.062 0
0.470 -11.640 6.020 38.724 -9.249 163.34 0 351.062 0.062 -16.000 0
-251.870 -0.010 -0.010 38.724 -9.249 163.28 0 94.938 0.250 19.125 0
0.150 74.530 -0.010 38.724 -9.249 163.40 0 196.938 -15.250 -0.062 0
3.770 -2.550 -0.010 38.724 -9.249 163.43 0 282.750 2.500 -16.000 0
0.730 -2.560 -0.010 38.724 -9.249 163.39 0 21.500 2.562 22.688 0
-1.450 89.950 -0.010 38.724 -9.249 163.53 0 95.250 5.250 22.875 0
0.290 -2.560 -0.010 38.724 -9.249 163.62 0 166.375 -8.875 35.375 0
0.110 -6.430 6.600 38.724 -9.249 163.64 0 216.625 -15.188 -0.062 0
0.200 -2.560 -0.010 38.724 -9.249 163.55 0 263.750 -15.000 -0.062 0
0.540 154.200 -0.010 38.724 -9.249 163.42 0 300.438 5.875 34.250 0
0.000 41.120 -0.010 38.724 -9.249 163.30 0 336.812 -14.688 -0.062 0
-195.330 -0.010 -0.010 38.724 -9.249 163.36 0 15.188 7.688 -16.000 0
-0.350 -6.780 7.470 38.724 -9.249 163.32 0 52.250 5.062 32.438 0
-210.750 -0.010 -0.010 38.724 -9.249 163.35 0 75.375 4.750 -16.000 0
0.060 -6.770 8.480 38.724 -9.249 163.35 0 77.625 3.250 -16.000 0
-215.890 -0.010 -0.010 38.724 -9.249 163.49 0 67.438 -15.750 -0.062 0
-179.910 -0.010 -0.010 38.724 -9.249 163.63 0 61.375 1.375 35.938 0
-221.030 -0.010 -0.010 38.724 -9.249 163.69 0 46.250 2.188 -16.000 0
-0.400 151.630 -0.010 38.724 -9.249 163.58 0 23.875 6.750 -16.000 0
1.880 -2.560 -0.010 38.724 -9.249 163.46 0 14.562 -16.000 -0.062 0
1.490 -2.560 -0.010 38.724 -9.249 163.40 0 46.562 -15.875 -0.062 0
-210.750 -0.010 -0.010 38.724 -9.249 163.52 0 104.188 -15.625 -0.062 0
-1.290 -6.530 6.590 38.724 -9.249 163.55 0 136.062 -15.500 -0.062 0
-0.500 -5.290 6.750 38.724 -9.249 163.55 0 150.938 -15.438 -0.062 0
-0.550 113.080 -0.010 38.724 -9.249 163.61 0 146.812 0.438 -16.000 0
-223.600 -0.010 -0.010 38.724 -9.249 163.46 0 128.625 -15.500 -0.062 0
-182.480 -0.010 -0.010 38.724 -9.249 163.63 0 102.625 -15.625 -0.062 0
0.260 -6.900 7.620 38.724 -9.249 163.60 0 71.688 -15.750 -0.062 0
0.280 -6.880 8.480 38.724 -9.249 163.54 0 55.938 -15.812 -0.062 0
1.040 -7.000 7.480 38.724 -9.249 163.53 0 57.312 -15.812 -0.062 0
-208.180 -0.010 -0.010 38.724 -9.249 163.56 0 79.188 0.188 32.125 0
-1.810 -6.800 6.080 38.724 -9.249 163.76 0 114.312 -15.562 -0.062 0
-1.430 -205.610 -0.010 38.724 -9.249 163.85 0 129.125 -15.500 -0.062 0
136.210 -0.010 -0.010 38.724 -9.249 163.88 0 118.500 1.562 -16.000 0
-1.600 -215.890 -0.010 38.724 -9.249 163.85 0 86.688 3.688 22.062 0
2.190 92.520 -0.010 38.724 -9.249 163.68 0 45.312 4.938 34.438 0
-290.420 -0.010 -0.010 38.724 -9.249 163.65 0 4.250 2.625 39.250 0
-0.340 -6.980 7.810 38.724 -9.249 163.62 0 328.938 1.375 -16.000 0
0.160 -2.560 -0.010 38.724 -9.249 163.67 0 292.312 2.375 39.375 0
0.590 128.500 -0.010 38.724 -9.249 163.69 0 252.438 -15.062 -0.062 0
0.220 -6.720 7.420 38.724 -9.249 163.89 0 213.938 -15.188 -0.062 0
-1.780 -8.290 7.100 38.724 -9.249 164.06 0 176.750 803.125 -0.062 0
51.400 -0.010 -0.010 38.724 -9.249 164.20 0 125.500 642.500 -0.062 0
0.420 -2.560 -0.010 38.724 -9.249 164.46 0 99.688 -15.625 -0.062 0
-1.690 100.230 -0.010 38.724 -9.249 164.38 0 122.938 -15.562 -0.062 0
-0.580 87.380 -0.010 38.724 -9.249 164.36 0 136.375 -15.500 -0.062 0
-1.830 -192.760 -0.010 38.724 -9.249 164.58 0 130.812 -15.500 -0.062 0
-0.140 -167.060 -0.010 38.724 -9.249 164.89 0 107.500 -15.625 -0.062 0
-0.110 -6.770 8.030 38.724 -9.249 165.24 0 75.875 2.500 -16.000 0
0.290 64.250 -0.010 38.724 -9.249 165.50 0 45.188 -15.875 -0.062 0
0.670 128.500 -0.010 38.724 -9.249 165.79 0 7.688 -16.000 -0.062 0
-0.260 -6.490 8.010 38.724 -9.249 166.48 0 340.562 -14.688 -0.062 0
3.290 113.080 -0.010 38.724 -9.249 167.41 0 328.688 -14.750 -0.062 0
2.790 -2.550 -0.010 38.724 -9.249 168.18 0 15.125 -16.000 -0.062 0
-1.630 46.260 -0.010 38.724 -9.249 168.53 0 124.188 -8.562 16.062 0
0.580 -2.560 -0.010 38.724 -9.249 169.13 0 217.062 -8.188 39.188 0
0.920 -2.560 -0.010 38.724 -9.249 169.79 0 327.375 2.125 -16.000 0
5.140 59.110 -0.010 38.724 -9.249 170.02 0 56.875 -15.812 -0.062 0
-0.060 -272.430 -0.010 38.724 -9.249 170.65 0 184.625 192.750 -0.062 0
2.330 -11.990 6.720 38.724 -9.249 171.17 0 284.875 3.875 -16.000 0
0.690 -2.560 -0.010 38.724 -9.249 171.45 0 42.062 2.375 -16.000 0
-0.450 -10.290 7.820 38.724 -9.249 171.71 0 132.375 -8.625 38.438 0
-0.490 -5.280 4.560 38.724 -9.249 172.02 0 210.375 48.188 -0.062 0
0.630 -2.560 -0.010 38.724 -9.249 172.56 0 260.438 -15.000 -0.062 0
0.830 -2.560 -0.010 38.724 -9.249 173.04 0 325.562 4.750 32.375 0
0.370 -2.560 -0.010 38.724 -9.249 173.41 0 22.375 -15.938 -0.062 0
-0.550 -262.150 -0.010 38.724 -9.249 173.78 0 80.562 5.875 19.312 0
-1.420 -290.420 -0.010 38.724 -9.249 174.61 0 120.812 1.188 19.375 0
-1.820 -251.870 -0.010 38.724 -9.249 175.15 0 143.250 -9.062 33.125 0
-1.460 -6.940 8.080 38.724 -9.249 175.67 0 132.250 899.500 -0.062 0
-0.110 -5.600 7.040 38.724 -9.249 176.10 0 96.812 -15.625 -0.062 0
0.150 -6.850 8.280 38.724 -9.249 176.41 0 68.750 -15.750 -0.062 0
1.220 -2.560 -0.010 38.724 -9.249 176.58 0 37.875 4.688 -16.000 0
1.190 -6.560 7.980 38.724 -9.249 177.15 0 20.688 -15.938 -0.062 0
1.050 -2.560 -0.010 38.724 -9.249 177.84 0 11.625 -16.000 -0.062 0
0.900 -6.650 7.890 38.724 -9.249 178.24 0 15.062 7.250 -16.000 0
0.830 -2.560 -0.010 38.724 -9.249 178.61 0 27.562 3.875 38.375 0
0.490 -2.560 -0.010 38.724 -9.249 178.87 0 44.312 3.750 -16.000 0
0.390 -2.560 -0.010 38.724 -9.249 179.19 0 61.000 3.812 -16.000 0
0.270 -2.560 -0.010 38.724 -9.249 179.62 0 82.062 3.625 37.625 0
-169.630 -0.010 -0.010 38.724 -9.249 180.25 0 106.312 3.188 36.625 0
-0.540 -5.730 7.540 38.724 -9.249 180.71 0 123.125 1.688 36.375 0
-249.300 -0.010 -0.010 38.724 -9.249 181.11 0 131.375 -15.500 -0.062 0
-0.390 -5.680 7.330 38.724 -9.249 181.65 0 127.438 -15.562 -0.062 0
-0.300 -6.450 8.110 38.724 -9.249 182.17 0 117.938 -15.562 -0.062 0
-0.490 -197.900 -0.010 38.724 -9.249 182.62 0 107.188 0.750 35.188 0
-0.110 -272.430 -0.010 38.724 -9.249 183.02 0 94.750 0.375 -16.000 0
0.010 -2.560 -0.010 38.724 -9.249 183.28 0 81.125 -15.688 -0.062 0
0.670 -2.560 -0.010 38.724 -9.249 183.62 0 69.750 0.438 36.688 0
0.650 -2.560 -0.010 38.724 -9.249 183.97 0 69.375 2.750 35.688 0
-182.480 -0.010 -0.010 38.724 -9.249 184.25 0 81.000 1.562 38.812 0
-0.460 -5.640 7.550 38.724 -9.249 184.59 0 87.750 -15.688 -0.062 0
-167.060 -0.010 -0.010 38.724 -9.249 184.85 0 85.312 -15.688 -0.062 0
-0.500 -285.280 -0.010 38.724 -9.249 185.08 0 73.812 -15.750 -0.062 0
0.760 -2.560 -0.010 38.724 -9.249 185.19 0 52.500 -15.812 -0.062 0
0.940 -2.560 -0.010 38.724 -9.249 185.34 0 35.625 3.188 38.812 0
1.160 -2.560 -0.010 38.724 -9.249 185.80 0 30.938 3.938 35.125 0
0.910 -2.560 -0.010 38.724 -9.249 186.16 0 37.750 4.688 36.500 0
0.700 -2.560 -0.010 38.724 -9.249 186.34 0 51.125 4.125 34.312 0
0.110 -6.510 8.270 38.724 -9.249 186.62 0 73.062 2.312 38.062 0
-0.620 -292.990 -0.010 38.724 -9.249 187.14 0 95.062 0.062 35.812 0
-0.520 -310.980 -0.010 38.724 -9.249 187.60 0 108.875 -15.625 -0.062 0
-195.330 -0.010 -0.010 38.724 -9.249 188.00 0 115.438 -15.562 -0.062 0
-195.330 -0.010 -0.010 38.724 -9.249 188.49 0 114.938 -15.562 -0.062 0
-0.380 -5.650 7.500 38.724 -9.249 188.95 0 108.750 -15.625 -0.062 0
-0.430 -267.290 -0.010 38.724 -9.249 189.29 0 99.875 -15.625 -0.062 0
0.050 -2.560 -0.010 38.724 -9.249 189.60 0 90.250 -15.688 -0.062 0
-0.190 -249.300 -0.010 38.724 -9.249 189.97 0 82.688 -15.688 -0.062 0
-0.070 -164.490 -0.010 38.724 -9.249 190.43 0 74.062 -15.750 -0.062 0
0.370 -6.860 8.480 38.724 -9.249 190.77 0 65.188 0.812 39.438 0
0.380 -2.560 -0.010 38.724 -9.249 191.18 0 63.375 3.438 37.625 0
0.330 -6.610 8.530 38.724 -9.249 191.70 0 69.625 2.000 -16.000 0
0.090 -2.560 -0.010 38.724 -9.249 192.44 0 80.188 -15.688 -0.062 0
-0.250 -323.830 -0.010 38.724 -9.249 193.23 0 93.625 -15.688 -0.062 0
-195.330 -0.010 -0.010 38.724 -9.249 194.05 0 111.062 -15.625 -0.062 0
-200.470 -0.010 -0.010 38.724 -9.249 194.68 0 124.688 -15.562 -0.062 0
-1.360 -5.440 7.330 38.724 -9.249 195.28 0 133.750 -15.500 -0.062 0
-233.880 -0.010 -0.010 38.724 -9.249 195.88 0 129.750 -15.500 -0.062 0
-0.510 -5.680 7.880 38.724 -9.249 196.63 0 118.062 -15.562 -0.062 0
-0.290 -231.310 -0.010 38.724 -9.249 197.15 0 111.750 -15.625 -0.062 0
-0.220 -5.570 7.400 38.724 -9.249 197.66 0 114.938 -15.562 -0.062 0
-195.330 -0.010 -0.010 38.724 -9.249 198.35 0 123.312 -15.562 -0.062 0
-228.740 -0.010 -0.010 38.724 -9.249 198.98 0 129.250 -15.500 -0.062 0
-200.470 -0.010 -0.010 38.724 -9.249 199.50 0 125.812 -15.562 -0.062 0
-210.750 -0.010 -0.010 38.724 -9.249 199.99 0 119.125 -15.562 -0.062 0
-0.610 -5.710 7.820 38.724 -9.249 200.51 0 112.562 -15.562 -0.062 0
-0.460 -5.620 7.730 38.724 -9.249 201.06 0 108.062 -15.625 -0.062 0
-0.270 -5.590 7.740 38.724 -9.249 201.60 0 106.062 -15.625 -0.062 0
-0.350 -295.560 -0.010 38.724 -9.249 202.21 0 106.438 -15.625 -0.062 0
-0.240 -210.750 -0.010 38.724 -9.249 202.78 0 109.625 -15.625 -0.062 0
-0.050 -285.280 -0.010 38.724 -9.249 203.59 0 112.062 -15.562 -0.062 0
-0.400 -179.910 -0.010 38.724 -9.249 204.22 0 113.312 -15.562 -0.062 0
-0.190 -300.700 -0.010 38.724 -9.249 204.80 0 114.188 -15.562 -0.062 0
-0.430 -6.620 8.490 38.724 -9.249 205.34 0 119.750 -15.562 -0.062 0
-0.340 -6.690 8.540 38.724 -9.249 206.00 0 126.562 -15.562 -0.062 0
-172.200 -0.010 -0.010 38.724 -9.249 206.69 0 135.000 -15.500 -0.062 0
-197.900 -0.010 -0.010 38.724 -9.249 207.50 0 138.188 -15.500 -0.062 0
-0.540 -210.750 -0.010 38.724 -9.249 208.30 0 133.750 -15.500 -0.062 0
-0.140 -269.860 -0.010 38.724 -9.249 209.05 0 131.250 -15.500 -0.062 0
-0.490 -251.870 -0.010 38.724 -9.249 209.73 0 134.812 -15.500 -0.062 0
-0.640 -308.410 -0.010 38.724 -9.249 210.52 0 140.625 -15.500 -0.062 0
-190.190 -0.010 -0.010 38.724 -9.249 211.49 0 145.312 -15.438 -0.062 0
-0.440 -210.750 -0.010 38.724 -9.249 212.36 0 148.688 -15.438 -0.062 0
-0.600 -249.300 -0.010 38.724 -9.249 213.42 0 157.750 -15.438 -0.062 0
-300.700 -0.010 -0.010 38.724 -9.249 214.52 0 177.250 -15.312 -0.062 0
-323.830 -0.010 -0.010 38.724 -9.249 215.50 0 193.062 -15.250 -0.062 0
-205.610 -0.010 -0.010 38.724 -9.249 216.50 0 206.312 -15.250 -0.062 0
-275.000 -0.010 -0.010 38.724 -9.249 217.54 0 227.750 -15.125 -0.062 0
-1.550 -6.870 7.560 38.724 -9.249 218.49 0 255.125 -15.062 -0.062 0
0.830 -2.560 -0.010 38.724 -9.249 219.40 0 297.438 -14.875 -0.062 0
4.080 -9.020 3.830 38.724 -9.249 220.38 0 9.562 -16.000 -0.062 0
0.930 -2.560 -0.010 38.724 -9.249 221.13 0 139.125 867.375 -0.062 0
1.700 -2.560 -0.010 38.724 -9.249 221.98 0 260.062 5.250 34.500 0
4.730 -2.550 -0.010 38.724 -9.249 222.76 0 41.750 -15.875 -0.062 0
-195.330 -0.010 -0.010 38.724 -9.249 223.21 0 184.188 -15.312 -0.062 0
2.930 -2.550 -0.010 38.724 -9.249 223.88 0 316.625 3.125 38.625 0
1.190 -2.560 -0.010 38.724 -9.249 224.43 0 88.688 -15.688 -0.062 0
-0.400 -221.030 -0.010 38.724 -9.249 225.18 0 212.938 -15.188 -0.062 0
2.090 133.640 -0.010 38.724 -9.249 225.96 0 350.375 -14.688 -0.062 0
0.980 -2.560 -0.010 38.724 -9.249 226.33 0 113.812 -10.562 20.375 0
0.140 -9.020 4.460 38.724 -9.249 227.02 0 236.375 -15.125 -0.062 0
2.490 159.340 -0.010 38.724 -9.249 227.74 0 355.312 0.750 -16.000 0
1.480 -11.630 7.800 38.724 -9.249 228.20 0 112.312 -15.562 -0.062 0
-233.880 -0.010 -0.010 38.724 -9.249 229.15 0 225.188 0.062 -16.000 0
2.730 -2.550 -0.010 38.724 -9.249 230.01 0 323.250 -14.750 -0.062 0
0.380 -2.560 -0.010 38.724 -9.249 230.64 0 68.062 -15.750 -0.062 0
-254.440 -0.010 -0.010 38.724 -9.249 231.22 0 167.312 401.562 -0.062 0
-0.280 -8.040 6.070 38.724 -9.249 232.17 0 248.312 -15.062 -0.062 0
2.270 71.960 -0.010 38.724 -9.249 233.04 0 324.438 3.438 38.000 0
0.790 131.070 -0.010 38.724 -9.249 233.87 0 42.438 3.750 22.438 0
-0.300 -8.080 7.660 38.724 -9.249 234.36 0 114.688 -15.562 -0.062 0
-1.850 -200.470 -0.010 38.724 -9.249 235.17 0 171.500 -15.375 -0.062 0
-1.920 120.790 -0.010 38.724 -9.249 235.94 0 190.438 -15.312 -0.062 0
-1.560 -290.420 -0.010 38.724 -9.249 236.69 0 169.750 -15.375 -0.062 0
0.080 107.940 -0.010 38.724 -9.249 237.44 0 117.688 -15.562 -0.062 0
1.320 -2.560 -0.010 38.724 -9.249 238.14 0 63.438 -15.812 -0.062 0
1.270 -6.620 6.690 38.724 -9.249 238.89 0 23.062 2.000 38.125 0
1.060 -6.670 5.870 38.724 -9.249 240.25 0 353.438 3.750 -16.000 0
0.760 43.690 -0.010 38.724 -9.249 241.17 0 341.000 5.312 -16.000 0
0.810 -6.780 5.920 38.724 -9.249 241.92 0 345.875 5.125 -16.000 0
0.770 87.380 -0.010 38.724 -9.249 242.77 0 8.375 4.000 -16.000 0
0.680 -6.640 7.310 38.724 -9.249 243.34 0 34.375 4.062 33.875 0
0.520 -6.810 8.080 38.724 -9.249 243.69 0 62.812 1.500 -16.000 0
-0.170 -208.180 -0.010 38.724 -9.249 244.30 0 92.938 -15.688 -0.062 0
-264.720 -0.010 -0.010 38.724 -9.249 245.05 0 124.062 -15.562 -0.062 0
-1.450 -5.310 7.420 38.724 -9.249 245.77 0 141.188 -15.500 -0.062 0
-295.560 -0.010 -0.010 38.724 -9.249 246.50 0 138.875 -9.875 35.688 0
-0.290 -5.600 7.270 38.724 -9.249 247.16 0 126.688 -10.625 31.688 0
-0.510 -6.900 8.970 38.724 -9.249 247.68 0 124.438 -15.562 -0.062 0
-177.340 -0.010 -0.010 38.724 -9.249 248.37 0 128.750 -15.500 -0.062 0
-0.380 -308.410 -0.010 38.724 -9.249 249.27 0 135.500 -15.500 -0.062 0
-203.040 -0.010 -0.010 38.724 -9.249 250.08 0 143.688 -15.500 -0.062 0
-172.200 -0.010 -0.010 38.724 -9.249 250.84 0 149.562 -15.438 -0.062 0
-244.160 -0.010 -0.010 38.724 -9.249 251.59 0 148.625 -15.438 -0.062 0
-213.320 -0.010 -0.010 38.724 -9.249 252.42 0 140.562 -15.500 -0.062 0
-0.480 -5.680 7.720 38.724 -9.249 253.18 0 131.250 -15.500 -0.062 0
-0.290 -264.720 -0.010 38.724 -9.249 253.90 0 129.312 -15.500 -0.062 0
-0.390 -203.040 -0.010 38.724 -9.249 254.56 0 135.812 -15.500 -0.062 0
-213.320 -0.010 -0.010 38.724 -9.249 255.43 0 152.938 -15.438 -0.062 0
-1.920 -5.350 7.200 38.724 -9.249 256.39 0 166.562 -15.375 -0.062 0
-1.480 -287.850 -0.010 38.724 -9.249 257.15 0 160.188 -15.375 -0.062 0
-0.050 -172.200 -0.010 38.724 -9.249 257.90 0 144.312 -10.688 33.688 0
-0.560 -6.430 8.220 38.724 -9.249 258.62 0 144.750 -15.438 -0.062 0
-1.670 -205.610 -0.010 38.724 -9.249 259.49 0 156.750 -15.438 -0.062 0
-1.530 -231.310 -0.010 38.724 -9.249 260.22 0 156.750 -15.438 -0.062 0
-226.170 -0.010 -0.010 38.724 -9.249 260.94 0 144.625 -11.312 36.750 0
-0.610 -244.160 -0.010 38.724 -9.249 261.73 0 138.938 -15.500 -0.062 0
-215.890 -0.010 -0.010 38.724 -9.249 262.56 0 147.188 -15.438 -0.062 0
-1.840 -267.290 -0.010 38.724 -9.249 263.55 0 158.625 -15.438 -0.062 0
-1.660 -249.300 -0.010 38.724 -9.249 264.51 0 160.375 -9.000 37.062 0
-287.850 -0.010 -0.010 38.724 -9.249 265.52 0 155.500 -9.250 36.250 0
-213.320 -0.010 -0.010 38.724 -9.249 266.33 0 149.562 -15.438 -0.062 0
-213.320 -0.010 -0.010 38.724 -9.249 267.20 0 148.938 -15.438 -0.062 0
-282.710 -0.010 -0.010 38.724 -9.249 268.10 0 152.938 -15.438 -0.062 0
-1.690 -182.480 -0.010 38.724 -9.249 268.92 0 156.625 -15.438 -0.062 0
-1.670 -236.450 -0.010 38.724 -9.249 269.70 0 154.438 -15.438 -0.062 0
-280.140 -0.010 -0.010 38.724 -9.249 270.71 0 148.125 -8.188 36.438 0
-192.760 -0.010 -0.010 38.724 -9.249 271.58 0 145.812 -15.438 -0.062 0
-1.550 -174.770 -0.010 38.724 -9.249 272.64 0 150.000 -15.438 -0.062 0
-298.130 -0.010 -0.010 38.724 -9.249 273.75 0 151.000 -15.438 -0.062 0
-262.150 -0.010 -0.010 38.724 -9.249 274.65 0 149.188 -8.875 36.938 0
-1.320 -167.060 -0.010 38.724 -9.249 275.46 0 147.625 -8.250 36.312 0
-287.850 -0.010 -0.010 38.724 -9.249 276.27 0 145.625 -15.438 -0.062 0
-280.140 -0.010 -0.010 38.724 -9.249 277.32 0 146.938 -15.438 -0.062 0
-1.570 -169.630 -0.010 38.724 -9.249 278.28 0 149.000 -15.438 -0.062 0
-1.400 -167.060 -0.010 38.724 -9.249 279.30 0 146.938 -15.438 -0.062 0
-310.980 -0.010 -0.010 38.724 -9.249 280.31 0 145.688 -8.562 35.688 0
-257.010 -0.010 -0.010 38.724 -9.249 281.22 0 146.438 -15.438 -0.062 0
-1.910 -192.760 -0.010 38.724 -9.249 282.21 0 149.438 -15.438 -0.062 0
-295.560 -0.010 -0.010 38.724 -9.249 283.19 0 146.000 -15.438 -0.062 0
-264.720 -0.010 -0.010 38.724 -9.249 284.03 0 143.250 -8.125 36.312 0
-308.410 -0.010 -0.010 38.724 -9.249 284.96 0 145.188 -15.438 -0.062 0
-313.550 -0.010 -0.010 38.724 -9.249 285.77 0 147.938 -15.438 -0.062 0
-305.840 -0.010 -0.010 38.724 -9.249 286.73 0 148.312 -8.750 35.812 0
-1.330 -5.690 7.750 38.724 -9.249 287.57 0 148.750 -15.438 -0.062 0
-308.410 -0.010 -0.010 38.724 -9.249 288.50 0 150.000 -15.438 -0.062 0
-1.290 -167.060 -0.010 38.724 -9.249 289.37 0 148.375 -15.438 -0.062 0
-185.050 -0.010 -0.010 38.724 -9.249 290.31 0 146.375 -15.438 -0.062 0
-285.280 -0.010 -0.010 38.724 -9.249 291.00 0 147.812 -15.438 -0.062 0
-1.470 -200.470 -0.010 38.724 -9.249 292.13 0 151.500 -15.438 -0.062 0
-1.300 -5.640 7.720 38.724 -9.249 293.22 0 150.375 -15.438 -0.062 0
-249.300 -0.010 -0.010 38.724 -9.249 294.24 0 147.250 -15.438 -0.062 0
-185.050 -0.010 -0.010 38.724 -9.249 295.17 0 145.500 -15.438 -0.062 0
-300.700 -0.010 -0.010 38.724 -9.249 296.01 0 147.750 -15.438 -0.062 0
-262.150 -0.010 -0.010 38.724 -9.249 297.00 0 147.062 -15.438 -0.062 0
-257.010 -0.010 -0.010 38.724 -9.249 297.99 0 149.688 -15.438 -0.062 0
-1.900 -195.330 -0.010 38.724 -9.249 298.85 0 158.625 -15.438 -0.062 0
-1.750 -300.700 -0.010 38.724 -9.249 300.11 0 165.625 -9.000 38.062 0
-1.510 -231.310 -0.010 38.724 -9.249 301.13 0 166.500 -10.062 37.312 0
-1.360 -200.470 -0.010 38.724 -9.249 302.03 0 158.688 -8.938 38.562 0
-251.870 -0.010 -0.010 38.724 -9.249 302.79 0 151.188 -15.438 -0.062 0
-310.980 -0.010 -0.010 38.724 -9.249 303.55 0 154.000 -15.438 -0.062 0
-1.430 -213.320 -0.010 38.724 -9.249 304.51 0 157.500 -15.438 -0.062 0
-308.410 -0.010 -0.010 38.724 -9.249 305.42 0 158.562 -15.438 -0.062 0
-287.850 -0.010 -0.010 38.724 -9.249 306.41 0 155.750 -15.438 -0.062 0
-316.120 -0.010 -0.010 38.724 -9.249 307.40 0 155.938 -15.438 -0.062 0
-1.640 -5.620 7.920 38.724 -9.249 308.51 0 158.750 -15.438 -0.062 0
-1.600 -5.730 7.570 38.724 -9.249 309.52 0 160.375 -9.062 37.188 0
-1.530 -5.760 7.760 38.724 -9.249 310.46 0 158.625 -9.688 34.562 0
-1.360 -239.020 -0.010 38.724 -9.249 311.42 0 155.250 -15.438 -0.062 0
-1.580 -5.480 7.710 38.724 -9.249 312.33 0 151.375 -15.438 -0.062 0
-275.000 -0.010 -0.010 38.724 -9.249 313.26 0 148.688 -15.438 -0.062 0
-0.330 -177.340 -0.010 38.724 -9.249 314.07 0 153.688 -15.438 -0.062 0
25.700 -0.010 -0.010 38.724 -9.249 315.36 0 195.000 -10.312 67.688 0
-167.060 -0.010 -0.010 38.724 -9.249 316.67 0 246.625 -15.062 -0.062 0
3.650 10.280 -0.010 38.724 -9.249 317.87 0 332.438 -10.625 56.062 0
1.410 -2.560 -0.010 38.724 -9.249 318.46 0 70.625 6.312 -16.000 0
-1.350 -8.210 3.090 38.724 -9.249 318.83 0 173.812 -15.375 -0.062 0
0.300 89.950 -0.010 38.724 -9.249 319.65 0 258.188 -15.000 -0.062 0
3.150 -2.550 -0.010 38.724 -9.249 320.73 0 11.312 -16.000 -0.062 0
0.620 -2.560 -0.010 38.724 -9.249 321.19 0 94.938 3.062 -16.000 0
20.560 -0.010 -0.010 38.724 -9.249 321.49 0 183.750 -8.625 33.438 0
-2.820 -6.550 6.450 38.724 -9.249 321.84 0 218.750 -15.188 -0.062 0
59.110 -0.010 -0.010 38.724 -9.249 321.95 0 188.625 -8.062 43.188 0
0.010 -2.560 -0.010 38.724 -9.249 322.10 0 128.125 690.688 -0.062 0
2.140 46.260 -0.010 38.724 -9.249 321.86 0 57.938 4.625 -16.000 0
1.990 -2.560 -0.010 38.724 -9.249 322.68 0 7.312 -16.000 -0.062 0
0.710 -2.560 -0.010 38.724 -9.249 322.86 0 335.625 -14.750 -0.062 0
0.710 -2.560 -0.010 38.724 -9.249 322.95 0 329.250 -14.750 -0.062 0
1.560 -9.170 7.430 38.724 -9.249 323.03 0 358.750 0.438 -16.000 0
0.620 -2.560 -0.010 38.724 -9.249 322.94 0 44.688 0.375 -16.000 0
-0.100 -7.790 7.990 38.724 -9.249 322.19 0 91.000 5.875 -16.000 0
-0.450 87.380 -0.010 38.724 -9.249 322.16 0 144.000 23.938 54.938 0
-244.160 -0.010 -0.010 38.724 -9.249 322.44 0 156.688 -15.438 -0.062 0
-321.260 -0.010 -0.010 38.724 -9.249 322.48 0 154.438 -15.438 -0.062 0
-205.610 -0.010 -0.010 38.724 -9.249 322.60 0 144.125 -15.438 -0.062 0
-264.720 -0.010 -0.010 38.724 -9.249 322.66 0 122.250 0.812 -16.000 0
0.890 48.830 -0.010 38.724 -9.249 322.33 0 89.750 3.250 33.438 0
1.350 -6.910 8.310 38.724 -9.249 322.19 0 66.375 3.625 -16.000 0
1.330 -2.560 -0.010 38.724 -9.249 322.65 0 54.938 3.812 -16.000 0
1.290 -7.040 8.120 38.724 -9.249 322.82 0 60.688 5.625 -16.000 0
0.830 -2.560 -0.010 38.724 -9.249 322.62 0 75.938 2.438 -16.000 0
0.140 -6.640 8.640 38.724 -9.249 322.30 0 97.562 2.625 39.875 0
-228.740 -0.010 -0.010 38.724 -9.249 322.39 0 117.812 -15.562 -0.062 0
-1.530 -316.120 -0.010 38.724 -9.249 322.66 0 124.625 -15.562 -0.062 0
-233.880 -0.010 -0.010 38.724 -9.249 322.86 0 120.000 -11.125 30.562 0
-0.360 -172.200 -0.010 38.724 -9.249 322.77 0 107.750 -9.062 32.812 0
0.810 -2.560 -0.010 38.724 -9.249 322.36 0 89.125 0.125 36.438 0
1.100 -2.560 -0.010 38.724 -9.249 322.01 0 78.438 5.750 -16.000 0
1.200 -2.560 -0.010 38.724 -9.249 321.89 0 79.812 6.312 36.500 0
0.920 -6.540 8.940 38.724 -9.249 322.01 0 93.500 -15.688 -0.062 0
-262.150 -0.010 -0.010 38.724 -9.249 322.30 0 110.438 -24.438 31.000 0
-295.560 -0.010 -0.010 38.724 -9.249 323.03 0 109.000 96.375 -0.062 0
-0.490 53.970 -0.010 38.724 -9.249 322.86 0 93.188 2.188 34.125 0
0.880 -2.560 -0.010 38.724 -9.249 322.42 0 75.375 -15.750 -0.062 0
1.350 -2.560 -0.010 38.724 -9.249 322.13 0 60.562 -15.812 -0.062 0
1.230 -2.560 -0.010 38.724 -9.249 322.24 0 63.188 6.562 35.750 0
0.870 -2.560 -0.010 38.724 -9.249 322.21 0 77.688 1.375 -16.000 0
-0.580 -223.600 -0.010 38.724 -9.249 322.27 0 98.500 1.750 33.875 0
-277.570 -0.010 -0.010 38.724 -9.249 322.66 0 112.250 -15.562 -0.062 0
-1.500 -215.890 -0.010 38.724 -9.249 323.06 0 110.062 -15.625 -0.062 0
-0.180 -5.510 7.880 38.724 -9.249 322.89 0 91.812 -15.688 -0.062 0
1.300 -2.560 -0.010 38.724 -9.249 322.62 0 70.625 1.375 33.188 0
1.440 -2.560 -0.010 38.724 -9.249 322.56 0 61.125 7.188 36.625 0
1.160 -2.560 -0.010 38.724 -9.249 322.54 0 66.312 7.188 36.625 0
0.930 -2.560 -0.010 38.724 -9.249 322.48 0 81.125 1.500 33.125 0
-0.470 -277.570 -0.010 38.724 -9.249 322.74 0 102.562 -15.625 -0.062 0
-1.490 -226.170 -0.010 38.724 -9.249 323.32 0 118.625 -15.562 -0.062 0
-1.580 -6.950 9.010 38.724 -9.249 323.97 0 117.938 -15.562 -0.062 0
-187.620 -0.010 -0.010 38.724 -9.249 324.21 0 104.562 -15.625 -0.062 0
0.110 -2.560 -0.010 38.724 -9.249 324.26 0 84.312 -15.688 -0.062 0
1.770 -2.560 -0.010 38.724 -9.249 324.23 0 72.938 1.375 37.375 0
0.560 -6.510 8.660 38.724 -9.249 324.61 0 90.188 5.062 32.000 0
-1.310 -6.500 8.260 38.724 -9.249 325.72 0 116.438 -15.562 -0.062 0
33.410 -0.010 -0.010 38.724 -9.249 326.58 0 147.625 -8.375 37.688 0
113.080 -0.010 -0.010 38.724 -9.249 327.16 0 152.750 -10.062 38.125 0
-200.470 -0.010 -0.010 38.724 -9.249 327.77 0 132.438 -15.500 -0.062 0
-174.770 -0.010 -0.010 38.724 -9.249 328.32 0 117.375 -15.562 -0.062 0
-264.720 -0.010 -0.010 38.724 -9.249 328.96 0 107.062 -15.625 -0.062 0
-0.420 -5.680 7.830 38.724 -9.249 329.43 0 89.312 -15.688 -0.062 0
1.210 -2.560 -0.010 38.724 -9.249 329.58 0 67.375 -15.750 -0.062 0
1.100 -2.560 -0.010 38.724 -9.249 330.19 0 62.750 6.812 33.625 0
1.310 -2.560 -0.010 38.724 -9.249 330.98 0 75.562 4.312 33.812 0
-259.580 -0.010 -0.010 38.724 -9.249 332.18 0 107.062 -15.625 -0.062 0
77.100 -0.010 -0.010 38.724 -9.249 333.20 0 138.562 3.000 -16.000 0
74.530 -0.010 -0.010 38.724 -9.249 334.26 0 143.125 3.500 52.438 0
-195.330 -0.010 -0.010 38.724 -9.249 334.95 0 119.250 -15.562 -0.062 0
-0.380 -6.560 7.680 38.724 -9.249 335.46 0 95.312 -15.688 -0.062 0
0.280 -2.560 -0.010 38.724 -9.249 336.06 0 79.562 0.812 -16.000 0
0.080 156.770 -0.010 38.724 -9.249 336.53 0 76.625 0.750 34.812 0
-0.270 -226.170 -0.010 38.724 -9.249 337.15 0 80.875 -15.688 -0.062 0
-0.380 -6.870 8.430 38.724 -9.249 337.88 0 85.750 -15.688 -0.062 0
-0.410 61.680 -0.010 38.724 -9.249 338.70 0 84.250 -15.688 -0.062 0
-0.240 -6.480 7.840 38.724 -9.249 339.16 0 71.438 -15.750 -0.062 0
0.350 -2.560 -0.010 38.724 -9.249 340.10 0 50.188 -15.812 -0.062 0
0.390 -2.560 -0.010 38.724 -9.249 341.02 0 33.500 -15.875 -0.062 0
0.950 -6.470 7.180 38.724 -9.249 342.27 0 27.000 -15.938 -0.062 0
1.240 -2.560 -0.010 38.724 -9.249 343.06 0 52.750 1.000 -16.000 0
0.100 -2.560 -0.010 38.724 -9.249 343.61 0 96.438 2.188 34.750 0
59.110 -0.010 -0.010 38.724 -9.249 344.55 0 143.500 4.312 36.250 0
146.490 -0.010 -0.010 38.724 -9.249 345.31 0 157.312 -10.938 30.438 0
-1.480 -6.620 7.300 38.724 -9.249 346.16 0 141.875 -15.500 -0.062 0
-0.460 -5.680 7.490 38.724 -9.249 346.80 0 117.875 -15.562 -0.062 0
-269.860 -0.010 -0.010 38.724 -9.249 347.45 0 94.688 0.062 -16.000 0
1.320 -2.560 -0.010 38.724 -9.249 347.68 0 65.625 -15.750 -0.062 0
1.360 -6.520 8.030 38.724 -9.249 348.21 0 48.062 1.250 -16.000 0
0.800 -2.560 -0.010 38.724 -9.249 349.07 0 46.000 5.062 -16.000 0
1.040 -6.500 8.280 38.724 -9.249 349.59 0 57.750 4.438 -16.000 0
0.650 -2.560 -0.010 38.724 -9.249 350.23 0 79.688 2.625 35.688 0
-1.500 -6.500 8.490 38.724 -9.249 351.32 0 109.562 -15.625 -0.062 0
-1.450 -236.450 -0.010 38.724 -9.249 352.38 0 125.062 7.438 36.750 0
-254.440 -0.010 -0.010 38.724 -9.249 353.22 0 132.438 -8.062 38.500 0
-269.860 -0.010 -0.010 38.724 -9.249 354.16 0 134.938 -15.500 -0.062 0
-172.200 -0.010 -0.010 38.724 -9.249 354.90 0 127.875 273.062 -0.062 0
-179.910 -0.010 -0.010 38.724 -9.249 355.72 0 122.125 -15.562 -0.062 0
-0.590 -231.310 -0.010 38.724 -9.249 356.48 0 121.375 0.688 37.062 0
-164.490 -0.010 -0.010 38.724 -9.249 357.24 0 123.000 -15.562 -0.062 0
-277.570 -0.010 -0.010 38.724 -9.249 358.12 0 126.750 -15.562 -0.062 0
-280.140 -0.010 -0.010 38.724 -9.249 358.91 0 129.188 -15.500 -0.062 0
-264.720 -0.010 -0.010 38.724 -9.249 359.65 0 133.062 -15.500 -0.062 0
-1.810 -257.010 -0.010 38.724 -9.249 360.78 0 138.625 -15.500 -0.062 0
-1.430 -185.050 -0.010 38.724 -9.249 361.81 0 133.812 -15.500 -0.062 0
-0.530 -208.180 -0.010 38.724 -9.249 362.67 0 127.250 -15.562 -0.062 0
-285.280 -0.010 -0.010 38.724 -9.249 363.52 0 130.688 -15.500 -0.062 0
-1.450 -185.050 -0.010 38.724 -9.249 364.60 0 136.062 -15.500 -0.062 0
-262.150 -0.010 -0.010 38.724 -9.249 365.48 0 134.250 -15.500 -0.062 0
-269.860 -0.010 -0.010 38.724 -9.249 366.39 0 130.188 -15.500 -0.062 0
-246.730 -0.010 -0.010 38.724 -9.249 367.27 0 130.062 -15.500 -0.062 0
-264.720 -0.010 -0.010 38.724 -9.249 368.12 0 133.375 -15.500 -0.062 0
-239.020 -0.010 -0.010 38.724 -9.249 369.06 0 135.125 -15.500 -0.062 0
-318.690 -0.010 -0.010 38.724 -9.249 370.04 0 132.688 -15.500 -0.062 0
-0.600 -208.180 -0.010 38.724 -9.249 371.17 0 126.938 -15.562 -0.062 0
-0.630 -223.600 -0.010 38.724 -9.249 372.06 0 124.375 -15.562 -0.062 0
-223.600 -0.010 -0.010 38.724 -9.249 373.09 0 126.500 -15.562 -0.062 0
-221.030 -0.010 -0.010 38.724 -9.249 374.16 0 131.312 -15.500 -0.062 0
-251.870 -0.010 -0.010 38.724 -9.249 375.16 0 137.188 -15.500 -0.062 0
-313.550 -0.010 -0.010 38.724 -9.249 376.05 0 138.812 -15.500 -0.062 0
-192.760 -0.010 -0.010 38.724 -9.249 376.96 0 129.562 16.250 -15.938 0
0.630 -6.410 6.010 38.724 -9.249 377.55 0 69.500 401.562 -0.062 0
0.220 -2.560 -0.010 38.724 -9.249 378.52 0 31.875 -15.938 -0.062 0
0.390 -6.890 7.040 38.724 -9.249 380.08 0 59.188 36.938 32.438 0
0.110 -1.370 -1.550 38.724 -9.249 381.14 0 77.000 -15.750 -0.062 0
-1.510 -259.580 -0.010 38.724 -9.249 381.46 0 128.125 -8.375 37.812 0
59.110 -0.010 -0.010 38.724 -9.249 381.90 0 177.875 3.500 36.188 0
141.350 -0.010 -0.010 38.724 -9.249 381.99 0 186.938 23.875 -15.938 0
-213.320 -0.010 -0.010 38.724 -9.249 381.94 0 161.562 7.250 53.812 0
0.070 0.000 -0.010 38.724 -9.249 381.67 0 110.312 546.125 -0.062 0
1.760 -6.590 7.210 38.724 -9.249 381.58 0 60.062 19.000 -15.938 0
0.970 -2.560 -0.010 38.724 -9.249 381.66 0 22.375 -15.938 -0.062 0
0.940 -2.560 -0.010 38.724 -9.249 381.92 0 348.688 -14.688 -0.062 0
0.670 -2.560 -0.010 38.724 -9.249 381.98 0 339.188 7.625 -16.000 0
0.920 -6.970 6.350 38.724 -9.249 382.14 0 345.250 -14.688 -0.062 0
1.050 -6.710 7.290 38.724 -9.249 382.17 0 17.938 23.562 -15.938 0
0.530 -6.500 7.940 38.724 -9.249 381.59 0 59.250 -15.812 -0.062 0
-1.700 110.510 -0.010 38.724 -9.249 381.58 0 102.062 -15.625 -0.062 0
33.410 -0.010 -0.010 38.724 -9.249 381.99 0 120.125 -11.438 32.375 0
-1.590 -6.520 7.570 38.724 -9.249 382.05 0 107.062 208.812 -0.062 0
-190.190 -0.010 -0.010 38.724 -9.249 381.93 0 81.562 -8.188 23.625 0
1.010 -6.570 8.450 38.724 -9.249 381.37 0 46.312 7.938 34.125 0
1.290 -2.560 -0.010 38.724 -9.249 381.35 0 20.188 -15.938 -0.062 0
0.930 102.800 -0.010 38.724 -9.249 381.67 0 8.812 -16.000 -0.062 0
1.120 48.830 -0.010 38.724 -9.249 382.17 0 19.750 -15.938 -0.062 0
2.150 5.140 -0.010 38.724 -9.249 382.81 0 29.938 36.625 85.000 0
2.810 23.130 -0.010 38.724 -9.249 383.49 0 50.625 33.000 33.625 0
1.910 -2.560 -0.010 38.724 -9.249 382.57 0 84.188 2.375 7.875 0
-4.210 -6.740 8.130 38.724 -9.249 382.85 0 141.312 337.312 -0.062 0
115.650 -0.010 -0.010 38.724 -9.249 383.64 0 156.438 819.188 -0.062 0
-0.320 -5.320 7.020 38.724 -9.249 383.20 0 105.062 -15.625 -0.062 0
2.550 100.230 -0.010 38.724 -9.249 382.07 0 63.750 2.062 21.812 0
2.640 -2.550 -0.010 38.724 -9.249 381.84 0 46.750 -15.875 -0.062 0
1.820 -2.560 -0.010 38.724 -9.249 381.99 0 55.562 -15.812 -0.062 0
0.890 -2.560 -0.010 38.724 -9.249 381.55 0 81.188 1.188 23.625 0
-1.710 12.850 -0.010 38.724 -9.249 381.81 0 109.188 -10.438 26.250 0
2.570 -0.010 -0.010 38.724 -9.249 382.57 0 122.000 835.250 -0.062 0
-1.720 -5.370 8.040 38.724 -9.249 382.84 0 121.688 819.188 -0.062 0
-1.340 -185.050 -0.010 38.724 -9.249 382.86 0 113.062 -15.562 -0.062 0
0.050 7.710 -0.010 38.724 -9.249 382.48 0 101.188 -15.625 -0.062 0
1.190 -2.560 -0.010 38.724 -9.249 381.70 0 90.250 4.188 -16.000 0
0.920 -2.560 -0.010 38.724 -9.249 381.49 0 86.500 -15.688 -0.062 0
0.210 -6.500 9.100 38.724 -9.249 381.61 0 91.188 -15.688 -0.062 0
1.350 38.550 -0.010 38.724 -9.249 381.63 0 91.688 23.438 -15.938 0
1.680 28.270 -0.010 38.724 -9.249 382.42 0 40.812 -15.875 -0.062 0
0.890 -2.560 -0.010 38.724 -9.249 383.25 0 31.750 6.812 39.938 0
1.550 -2.560 -0.010 38.724 -9.249 384.13 0 65.188 -15.750 -0.062 0
0.660 -9.330 9.670 38.724 -9.249 383.95 0 111.250 -15.625 -0.062 0
-1.920 -6.500 7.670 38.724 -9.249 384.51 0 168.312 1.000 -16.000 0
51.400 -0.010 -0.010 38.724 -9.249 385.11 0 191.188 18.312 -15.938 0
-0.190 -8.230 7.130 38.724 -9.249 385.36 0 122.125 -10.438 109.938 0
0.300 -2.560 -0.010 38.724 -9.249 385.52 0 44.625 -15.875 -0.062 0
1.510 -2.560 -0.010 38.724 -9.249 385.61 0 1.000 16.562 -15.938 0
0.020 -2.560 -0.010 38.724 -9.249 386.34 0 218.938 -15.188 -0.062 0
0.630 -2.560 -0.010 38.724 -9.249 385.89 0 112.562 -15.562 -0.062 0
1.770 23.130 -0.010 38.724 -9.249 385.77 0 332.938 -14.750 -0.062 0
-0.580 -11.610 6.200 38.724 -9.249 385.83 0 233.250 4.562 34.562 0
1.070 -9.270 5.910 38.724 -9.249 385.63 0 93.625 3.750 20.438 0
2.420 -2.560 -0.010 38.724 -9.249 385.73 0 355.875 -14.625 -0.062 0
-0.530 -7.870 6.120 38.724 -9.249 385.72 0 241.938 1.188 -16.000 0
0.660 128.500 -0.010 38.724 -9.249 385.66 0 141.250 -11.125 31.500 0
2.370 -2.560 -0.010 38.724 -9.249 385.37 0 24.938 -15.938 -0.062 0
1.040 -2.560 -0.010 38.724 -9.249 385.72 0 294.625 -14.875 -0.062 0
0.080 -2.560 -0.010 38.724 -9.249 385.98 0 178.125 -15.312 -0.062 0
0.920 -4.390 5.460 38.724 -9.249 386.16 0 120.062 835.250 -0.062 0
105.370 -0.010 -0.010 38.724 -9.249 386.31 0 117.688 -8.375 39.688 0
56.540 -0.010 -0.010 38.724 -9.249 386.27 0 115.688 1.562 -16.000 0
-236.450 -0.010 -0.010 38.724 -9.249 385.69 0 102.125 -15.625 -0.062 0
-0.550 30.840 -0.010 38.724 -9.249 385.42 0 89.688 771.000 -0.062 0
0.150 -2.560 -0.010 38.724 -9.249 385.07 0 78.625 -15.750 -0.062 0
1.780 -2.560 -0.010 38.724 -9.249 384.68 0 72.125 -15.750 -0.062 0
2.320 17.990 -0.010 38.724 -9.249 384.75 0 74.750 -15.750 -0.062 0
2.410 -2.560 -0.010 38.724 -9.249 385.10 0 97.250 7.562 23.125 0
-3.140 10.280 -0.010 38.724 -9.249 385.34 0 136.938 -24.062 67.500 0
-3.860 -6.500 6.610 38.724 -9.249 386.36 0 175.438 -15.375 -0.062 0
-1.760 -179.910 -0.010 38.724 -9.249 386.39 0 147.938 -9.125 38.812 0
-0.520 -5.320 7.550 38.724 -9.249 385.86 0 116.688 6.875 -16.000 0
0.330 -2.560 -0.010 38.724 -9.249 384.95 0 95.688 2.312 -16.000 0
0.420 -2.560 -0.010 38.724 -9.249 384.24 0 84.688 -15.688 -0.062 0
0.670 -2.560 -0.010 38.724 -9.249 383.81 0 74.750 -15.750 -0.062 0
0.650 -6.430 8.850 38.724 -9.249 383.66 0 74.312 -15.750 -0.062 0
0.290 123.360 -0.010 38.724 -9.249 383.54 0 90.750 -15.688 -0.062 0
-1.430 -6.740 8.800 38.724 -9.249 383.71 0 115.562 4.812 -16.000 0
-326.400 -0.010 -0.010 38.724 -9.249 384.12 0 131.438 0.312 -16.000 0
-251.870 -0.010 -0.010 38.724 -9.249 384.39 0 131.500 -8.688 27.688 0
-241.590 -0.010 -0.010 38.724 -9.249 384.54 0 125.250 -15.562 -0.062 0
-298.130 -0.010 -0.010 38.724 -9.249 384.51 0 120.250 -15.562 -0.062 0
-259.580 -0.010 -0.010 38.724 -9.249 384.48 0 110.750 -15.625 -0.062 0
-0.360 -5.660 7.540 38.724 -9.249 384.39 0 94.625 -15.688 -0.062 0
0.710 -2.560 -0.010 38.724 -9.249 384.06 0 78.688 2.250 33.188 0
0.790 -2.560 -0.010 38.724 -9.249 383.92 0 76.500 7.438 -16.000 0
0.040 -2.560 -0.010 38.724 -9.249 383.83 0 90.688 4.938 -16.000 0
-313.550 -0.010 -0.010 38.724 -9.249 384.12 0 107.500 0.688 -16.000 0
-1.490 -6.670 8.320 38.724 -9.249 384.59 0 122.500 -15.562 -0.062 0
-316.120 -0.010 -0.010 38.724 -9.249 385.28 0 132.375 -15.500 -0.062 0
-1.620 -6.530 8.340 38.724 -9.249 385.57 0 143.312 -15.500 -0.062 0
-1.840 -287.850 -0.010 38.724 -9.249 385.75 0 150.188 -15.438 -0.062 0
151.630 -0.010 -0.010 38.724 -9.249 386.00 0 146.750 -15.438 -0.062 0
-185.050 -0.010 -0.010 38.724 -9.249 386.21 0 137.812 -15.500 -0.062 0
-200.470 -0.010 -0.010 38.724 -9.249 386.33 0 136.875 -15.500 -0.062 0
-316.120 -0.010 -0.010 38.724 -9.249 386.62 0 143.625 -15.500 -0.062 0
-1.820 -172.200 -0.010 38.724 -9.249 386.80 0 146.688 -15.438 -0.062 0
-1.430 -226.170 -0.010 38.724 -9.249 386.99 0 143.062 -15.500 -0.062 0
-1.350 -231.310 -0.010 38.724 -9.249 387.09 0 136.312 -15.500 -0.062 0
-185.050 -0.010 -0.010 38.724 -9.249 387.40 0 132.188 -15.500 -0.062 0
-267.290 -0.010 -0.010 38.724 -9.249 387.69 0 135.438 -15.500 -0.062 0
-282.710 -0.010 -0.010 38.724 -9.249 388.10 0 145.625 -15.438 -0.062 0
59.110 -0.010 -0.010 38.724 -9.249 388.75 0 158.688 -8.562 37.812 0
-1.720 -5.500 7.180 38.724 -9.249 389.33 0 161.062 -10.375 34.125 0
-1.530 -5.760 7.720 38.724 -9.249 389.87 0 155.000 -11.438 36.562 0
-1.330 -5.700 7.720 38.724 -9.249 390.44 0 150.375 -9.938 38.562 0
-1.540 -174.770 -0.010 38.724 -9.249 391.03 0 151.688 -15.438 -0.062 0
154.200 -0.010 -0.010 38.724 -9.249 391.74 0 151.188 -15.438 -0.062 0
-282.710 -0.010 -0.010 38.724 -9.249 392.37 0 148.875 -15.438 -0.062 0
-1.900 -218.460 -0.010 38.724 -9.249 392.98 0 154.688 -15.438 -0.062 0
-1.780 -185.050 -0.010 38.724 -9.249 393.69 0 159.500 -8.312 36.875 0
-1.750 -195.330 -0.010 38.724 -9.249 394.37 0 158.062 -8.188 35.875 0
-1.560 -5.720 7.640 38.724 -9.249 395.04 0 156.375 -8.750 33.688 0
-1.560 -182.480 -0.010 38.724 -9.249 395.92 0 155.312 -8.625 34.312 0
-1.420 -241.590 -0.010 38.724 -9.249 396.80 0 154.375 -11.062 37.812 0
138.780 -0.010 -0.010 38.724 -9.249 397.49 0 157.188 995.875 -0.062 0
-1.520 -218.460 -0.010 38.724 -9.249 398.20 0 156.375 -10.250 38.062 0
-1.900 -213.320 -0.010 38.724 -9.249 398.86 0 156.125 -15.438 -0.062 0
-323.830 -0.010 -0.010 38.724 -9.249 399.63 0 152.625 -15.438 -0.062 0
-275.000 -0.010 -0.010 38.724 -9.249 400.49 0 148.938 -15.438 -0.062 0
-213.320 -0.010 -0.010 38.724 -9.249 401.29 0 154.750 -15.438 -0.062 0
-1.740 -182.480 -0.010 38.724 -9.249 402.38 0 164.375 -15.375 -0.062 0
-1.700 -316.120 -0.010 38.724 -9.249 403.34 0 170.125 -8.875 38.250 0
151.630 -0.010 -0.010 38.724 -9.249 404.14 0 169.938 -8.812 34.812 0
-264.720 -0.010 -0.010 38.724 -9.249 404.96 0 156.062 -9.125 37.250 0
-200.470 -0.010 -0.010 38.724 -9.249 405.88 0 148.125 -10.062 39.938 0
-1.460 -277.570 -0.010 38.724 -9.249 406.79 0 162.375 -15.375 -0.062 0
66.820 -0.010 -0.010 38.724 -9.249 407.93 0 178.250 -15.312 -0.062 0
161.910 -0.010 -0.010 38.724 -9.249 408.98 0 177.312 -11.625 39.125 0
-1.640 -257.010 -0.010 38.724 -9.249 409.91 0 167.688 -11.875 40.500 0
-1.300 -215.890 -0.010 38.724 -9.249 410.74 0 160.562 -10.688 38.875 0
-1.600 -267.290 -0.010 38.724 -9.249 411.62 0 163.812 -9.188 37.312 0
128.500 -0.010 -0.010 38.724 -9.249 412.48 0 174.312 -8.875 37.188 0
-1.780 -282.710 -0.010 38.724 -9.249 413.48 0 175.125 -10.938 40.875 0
-1.920 -249.300 -0.010 38.724 -9.249 414.46 0 170.188 -11.062 41.250 0
-1.370 -264.720 -0.010 38.724 -9.249 415.43 0 163.062 -10.500 38.750 0
-1.640 -215.890 -0.010 38.724 -9.249 416.41 0 160.875 -9.688 36.688 0
-1.710 -269.860 -0.010 38.724 -9.249 417.47 0 165.500 -9.438 38.688 0
-1.900 -249.300 -0.010 38.724 -9.249 418.60 0 169.688 -10.500 39.438 0
154.200 -0.010 -0.010 38.724 -9.249 419.48 0 169.062 -11.500 40.062 0
-1.740 -223.600 -0.010 38.724 -9.249 420.49 0 163.000 -11.250 37.625 0
-1.660 -254.440 -0.010 38.724 -9.249 421.37 0 159.438 -10.875 38.125 0
-1.580 -221.030 -0.010 38.724 -9.249 422.38 0 161.688 -10.062 39.188 0
128.500 -0.010 -0.010 38.724 -9.249 423.50 0 167.312 -9.312 39.812 0
-1.540 -257.010 -0.010 38.724 -9.249 424.56 0 168.688 -8.500 38.438 0
-316.120 -0.010 -0.010 38.724 -9.249 425.57 0 170.438 -9.250 40.438 0
-1.820 -5.250 6.700 38.724 -9.249 426.59 0 174.688 -8.562 38.938 0
-1.890 -4.040 5.220 38.724 -9.249 427.59 0 173.750 -15.375 -0.062 0
87.380 -0.010 -0.010 38.724 -9.249 428.48 0 163.438 -8.062 31.750 0
-187.620 -0.010 -0.010 38.724 -9.249 429.01 0 144.500 883.438 -0.062 0
-0.500 -221.030 -0.010 38.724 -9.249 429.47 0 132.938 -8.562 29.188 0
-0.310 -3.960 5.540 38.724 -9.249 429.73 0 134.438 -15.500 -0.062 0
-1.530 -244.160 -0.010 38.724 -9.249 429.99 0 142.500 -15.500 -0.062 0
-1.510 -179.910 -0.010 38.724 -9.249 430.15 0 148.688 -15.438 -0.062 0
-1.700 -6.540 8.530 38.724 -9.249 430.26 0 152.312 -15.438 -0.062 0
-1.320 -262.150 -0.010 38.724 -9.249 430.32 0 148.812 -8.938 37.812 0
-203.040 -0.010 -0.010 38.724 -9.249 430.35 0 143.375 -9.312 37.500 0
-277.570 -0.010 -0.010 38.724 -9.249 430.37 0 146.875 -9.438 37.250 0
102.800 -0.010 -0.010 38.724 -9.249 430.43 0 153.500 -9.938 39.688 0
-326.400 -0.010 -0.010 38.724 -9.249 430.37 0 148.812 -11.750 36.375 0
-316.120 -0.010 -0.010 38.724 -9.249 430.40 0 136.188 -10.875 35.812 0
-249.300 -0.010 -0.010 38.724 -9.249 430.46 0 123.312 -15.562 -0.062 0
-215.890 -0.010 -0.010 38.724 -9.249 430.32 0 112.938 -15.562 -0.062 0
-0.600 -169.630 -0.010 38.724 -9.249 430.08 0 101.188 -15.625 -0.062 0
0.400 -2.560 -0.010 38.724 -9.249 429.82 0 89.938 0.125 34.125 0
0.490 -2.560 -0.010 38.724 -9.249 429.63 0 87.562 2.625 36.250 0
0.060 -2.560 -0.010 38.724 -9.249 429.58 0 95.688 1.750 34.500 0
-0.630 -5.700 7.860 38.724 -9.249 429.81 0 109.000 -15.625 -0.062 0
-241.590 -0.010 -0.010 38.724 -9.249 430.17 0 116.438 -15.562 -0.062 0
-257.010 -0.010 -0.010 38.724 -9.249 430.48 0 116.062 -15.562 -0.062 0
-200.470 -0.010 -0.010 38.724 -9.249 430.64 0 109.000 -15.625 -0.062 0
-0.030 -244.160 -0.010 38.724 -9.249 430.58 0 98.125 -15.625 -0.062 0
0.320 -6.570 9.060 38.724 -9.249 430.47 0 90.375 -15.688 -0.062 0
